[
  {
    "id": "centerCourt",
    "lat": 51.43374506102902,
    "lng": -0.21404060109440964,
    "placeId": "ChIJpVAgYVIPdkgRve2rJl9Z7uo",
    "icon": "images/icons/arena.png",
    "content": "<div id=\"center-court-content\"><h1>Center Court</h1><div id=\"court-content\"><p>Wimbledon Center Court is the main court at the All England Club, with a capacity of 15,000. It is known for its iconic retractable roof and has hosted many historic matches.</p></div></div>",
    "img": "https://www.midlandtravel.ie/custom/public/images/wimbledon-centre-court.jpeg"
  },
  {
    "id": "court1",
    "content": "<div id=\"court1-content\"><h1>Court 1</h1><div id=\"court-content\"><p>One of the main four courts in Wimbledon Park. Used for specific events while the Centre court is used. It has a capacity of 12,345.</p></div></div>",
    "lat": 51.43528340448336,
    "lng": -0.21481038449241435,
    "placeId": "ChIJWXYu-0gPdkgRWpygJshgdYw",
    "icon": "images/icons/tennis-court-spec.png",
    "img": "https://upload.wikimedia.org/wikipedia/commons/a/a7/Uk_london_wimbeldon_No-1_Court.jpg"
  },
  {
    "id": "court2",
    "content": "<div id=\"court2-content\"><h1>Court 2</h1><div id=\"court-content\"><p>One of the main four courts in Wimbledon Park. Used for specific events while the Centre court is used. It has a capacity of 4,000.</p></div></div>",
    "lat": 51.432340441327966,
    "lng": -0.21294460362624837,
    "placeId":"ChIJy0O7FjUPdkgR38qvEZWPWPg",
    "icon": "images/icons/tennis-court-spec.png",
    "img":"https://upload.wikimedia.org/wikipedia/commons/4/40/Wik6Court2.jpg"
  },
  {
    "id": "court3",
    "content": "<div id=\"court3-content\"><h1>Court 3</h1><div id=\"court-content\"><p>One of the main four courts in Wimbledon Park. Used for specific events while the Centre court is used. It has a capacity of 2,000.</p></div></div>",
    "lat": 51.43272838822876,
    "lng": -0.21461737267868264,
    "placeId":"ChIJldoB8DQPdkgRoRTLwjb-M20",
    "icon": "images/icons/tennis-court-spec.png",
    "img":"https://upload.wikimedia.org/wikipedia/commons/9/97/Flavia_Pennetta_v_Elena_Baltacha_on_Court_3_%289285893445%29.jpg"
  },
  {
    "id": "court4",
    "content": "<div id=\"court4-content\"><h1>Court 4</h1><div id=\"court-content\"><p>One of the smaller courts in Wimbledon Park. Primarily used for practice matches but can hold events aswell.a</p></div></div>",
    "lat": 51.43288222832894,
    "lng": -0.21422278583694168,
    "placeId":"ChIJi1Jg_DQPdkgRvKoRBnJUDOg",
    "icon": "images/icons/tennis-court.png",
    "img":"https://upload.wikimedia.org/wikipedia/commons/d/d7/Court_4_Wimbledon.JPG"
  },
  {
    "id": "court5",
    "content": "<div id=\"court5-content\"><h1>Court 5</h1><div id=\"court-content\"><p>One of the smaller courts in Wimbledon Park. Primarily used for practice matches but can hold events aswell.</p></div></div>",
    "lat": 51.43296918119988,
    "lng": -0.21390071563367474,
    "placeId":"ChIJKVUJAjUPdkgRaA_jUkBBE9o",
    "icon": "images/icons/tennis-court.png",
    "img":"https://upload.wikimedia.org/wikipedia/commons/d/d7/Court_4_Wimbledon.JPG"
  },
  {
    "id": "court6",
    "content": "<div id=\"court6-content\"><h1>Court 6</h1><div id=\"court-content\"><p>One of the smaller courts in Wimbledon Park. Primarily used for practice matches but can hold events aswell.</p></div></div>",
    "lat": 51.43306282256813,
    "lng": -0.21362158812418877,
    "placeId":"",
    "icon": "images/icons/tennis-court.png",
    "img":"https://upload.wikimedia.org/wikipedia/commons/d/d7/Court_4_Wimbledon.JPG"
  },
  {
    "id": "court7",
    "content": "<div id=\"court7-content\"><h1>Court 7</h1><div id=\"court-content\"><p>One of the smaller courts in Wimbledon Park. Primarily used for practice matches but can hold events aswell.</p></div></div>",
    "lat": 51.433169841039664,
    "lng": -0.21327804657404137,
    "placeId":"ChIJiaFJBjUPdkgReC2DKqqH2ck",
    "icon": "images/icons/tennis-court.png",
    "img":"https://upload.wikimedia.org/wikipedia/commons/d/d7/Court_4_Wimbledon.JPG"
  },
  {
    "id": "court8",
    "content": "<div id=\"court8-content\"><h1>Court 8</h1><div id=\"court-content\"><p>One of the smaller courts in Wimbledon Park. Primarily used for practice matches but can hold events aswell.</p></div></div>",
    "lat": 51.432547792667535,
    "lng": -0.21398660102121664,
    "placeId":"ChIJ81ZLonQPdkgR5orbZ4NWGaA",
    "icon": "images/icons/tennis-court.png",
    "img":"https://upload.wikimedia.org/wikipedia/commons/d/d7/Court_4_Wimbledon.JPG"
  },
  {
    "id": "court9",
    "content": "<div id=\"court9-content\"><h1>Court 9</h1><div id=\"court-content\"><p>One of the smaller courts in Wimbledon Park. Primarily used for practice matches but can hold events aswell.</p></div></div>",
    "lat": 51.43266818978766,
    "lng": -0.213632323797619,
    "placeId":"ChIJJWy4HDUPdkgRB7eO4vSX064",
    "icon": "images/icons/tennis-court.png",
    "img":"https://upload.wikimedia.org/wikipedia/commons/d/d7/Court_4_Wimbledon.JPG"
  },
  {
    "id": "court10",
    "content": "<div id=\"court10-content\"><h1>Court 10</h1><div id=\"court-content\"><p>One of the smaller courts in Wimbledon Park. Primarily used for practice matches but can hold events aswell.</p></div></div>",
    "lat": 51.43278189788757,
    "lng": -0.21336393196158326,
    "placeId":"ChIJUe4lBTUPdkgRhQScJ5C7mMI",
    "icon": "images/icons/tennis-court.png",
    "img":"https://upload.wikimedia.org/wikipedia/commons/d/d7/Court_4_Wimbledon.JPG"
  },
  {
    "id": "court11",
    "content": "<div id=\"court11-content\"><h1>Court 11</h1><div id=\"court-content\"><p>One of the smaller courts in Wimbledon Park. Primarily used for practice matches but can hold events aswell.</p></div></div>",
    "lat": 51.43288222832894,
    "lng": -0.21304186175831633,
    "placeId":"ChIJzz5TCd0PdkgRkbJgW8uJY_k",
    "icon": "images/icons/tennis-court.png",
    "img":"https://upload.wikimedia.org/wikipedia/commons/d/d7/Court_4_Wimbledon.JPG"
  },
  {
    "id": "court12",
    "content": "<div id=\"court12-content\"><h1>Court 12</h1><div id=\"court-content\"><p>One of the smaller courts in Wimbledon Park. Primarily used for practice matches but can hold events aswell. It has a capcity of 1,736</p></div></div>",
    "lat": 51.432253487260326,
    "lng": -0.2135578099600988,
    "placeId":"",
    "icon": "images/icons/tennis-court.png",
    "img":"https://upload.wikimedia.org/wikipedia/commons/d/d7/Court_4_Wimbledon.JPG"
  },
  {
    "id": "court14",
    "content": "<div id=\"court14-content\"><h1>Court 14</h1><div id=\"court-content\"><p>One of the smaller courts in Wimbledon Park. Primarily used for practice matches but can hold events aswell.</p></div></div>",
    "lat": 51.43429017561382,
    "lng": -0.21517244850670417,
    "placeId":"ChIJ80fJQzQPdkgRQK7dlEBnbYo",
    "icon": "images/icons/tennis-court.png",
    "img":"https://upload.wikimedia.org/wikipedia/commons/d/d7/Court_4_Wimbledon.JPG"
  },
  {
    "id": "court15",
    "content": "<div id=\"court15-content\"><h1>Court 15</h1><div id=\"court-content\"><p>One of the smaller courts in Wimbledon Park. Primarily used for practice matches but can hold events aswell.</p></div></div>",
    "lat": 51.43440387967663,
    "lng": -0.21480715869568462,
    "placeId":"ChIJ34BlRjQPdkgRND4huFbPgNg",
    "icon": "images/icons/tennis-court.png",
    "img":"https://upload.wikimedia.org/wikipedia/commons/d/d7/Court_4_Wimbledon.JPG"
  },
  {
    "id": "court16",
    "content": "<div id=\"court16-content\"><h1>Court 16</h1><div id=\"court-content\"><p>One of the smaller courts in Wimbledon Park. Primarily used for practice matches but can hold events aswell.</p></div></div>",
    "lat": 51.43451089500664,
    "lng": -0.21440457094161094,
    "placeId":"ChIJZRsKSTQPdkgRW6ZmF8uUgUw",
    "icon": "images/icons/tennis-court.png",
    "img":"https://upload.wikimedia.org/wikipedia/commons/d/d7/Court_4_Wimbledon.JPG"
  },
  {
    "id": "court17",
    "content": "<div id=\"court17-content\"><h1>Court 17</h1><div id=\"court-content\"><p>One of the smaller courts in Wimbledon Park. Primarily used for practice matches but can hold events aswell.</p></div></div>",
    "lat": 51.43461456586849,
    "lng": -0.214034190207848,
    "placeId":"ChIJ1QKWSjQPdkgRa9MaE77791o",
    "icon": "images/icons/tennis-court.png",
    "img":"https://upload.wikimedia.org/wikipedia/commons/d/d7/Court_4_Wimbledon.JPG"
  },
  {
    "id": "court18",
    "lat": 51.43466138489031,
    "lng": -0.2159988184477602,
    "icon": "images/icons/tennis-court.png",
    "placeId": "",
    "img":"https://upload.wikimedia.org/wikipedia/commons/d/d7/Court_4_Wimbledon.JPG",
    "content": "<div id=\"court18-content\"><h1>Court 18</h1><div id=\"court-content\"><p>One of the smaller courts in Wimbledon Park. Primarily used for practice matches but can hold events aswell. It has a capacity of 782</p></div></div>"
  },
  {
  "id": "hill",
  "content": "<div id=\"hill-content\"><h1>The Hill</h1><div id=\"hill-content\"><p>Where better to watch all the action than in front of the big screen on the famous Hill. This is also where you will find the Ticket Resale Booth</p></div></div>",
  "lat": 51.435530872288915,
  "lng": -0.21603047847747806,
    "placeId":"ChIJw_ruGjQPdkgR6p3hIY4_5LE",
  "icon": "images/icons/hill.png",
  "img":"https://ichef.bbci.co.uk/ace/standard/976/cpsprodpb/31f9/live/0f5b2090-106f-11f0-b72e-6314f702e779.jpg.webp"
  },
  {
    "id": "garden",
    "content": "<div id=\"garden-content\"><h1>Centenary Garden</h1><div id=\"garden-content\"><p>A place to relax and soak up the atmosphere whether it's over a coffee, a drink, a snack or a more substantial lunch.</p></div></div>",
    "lat": 51.433146430770435,
    "lng": -0.21284940387718443,
    "placeId":"",
    "icon": "images/icons/restaurant.png",
    "img":"https://www.mar-key.com/wp-content/uploads/2023/08/14588-Wimbledon-23-Event-Day-by-NJC-ITB-NJC_2160-e1692090053401.jpg"
  }
]

